- name: Home
  latitude: 64.322772
  longitude: -22.042609
  radius: 20
  passive: false
  icon: mdi:home

- name: Hlynskógar 4
  latitude: 64.323978
  longitude: -22.048769
  radius: 20
  passive: false
  icon: mdi:map-marker

- name: Jörundarholt 140
  latitude: 64.316188
  longitude: -22.037453
  radius: 20
  passive: false
  icon: mdi:map-marker

- name: Ægir
  latitude: 64.313290
  longitude: -22.092378
  radius: 30
  passive: false
  icon: mdi:map-marker

- name: EFLA
  latitude: 64.120472
  longitude: -21.793840
  radius: 30
  passive: false
  icon: mdi:briefcase